{
    "Resource": [
        {
            "name": "Centre for Addiction and Mental Health",
            "address": "1001 Queen St W, Toronto",
            "phone": "1-800 463-2338",
            "website": "www.camh.ca",
            "cost": "Covered by OHIP",
            "lat": 43.642804,
            "lng": -79.418489,
            "filter": "",
            "details": "" 
        },
        {
            "name": "Stella's Place",
            "address": "18 Camden St, Toronto",
            "phone": "(416) 461-2345",
            "website": "www.stellasplace.ca",
            "cost": "Free",
            "lat": 43.647349, 
            "lng": -79.396848,
            "filter": "",
            "details": "" 
        },
        {
            "name": "Skylar Youth",
            "address": "65 Wellesley St E #500, Toronto",
            "phone": "(416) 482-0081 x333",
            "website": "www.skylarkyouth.org",
            "cost": "Free",
            "lat": 43.665417, 
            "lng": -79.381161,
            "filter": "",
            "details": "" 
        },
        {
            "name": "Annishinabwe Health Toronto",
            "address": "225 Queen St. E, Toronto",
            "phone": "416-360-0486",
            "website": "www.aht.ca",
            "cost": "Free",
            "lat": 43.654212, 
            "lng": -79.369809,
            "filter": "",
            "details": "" 
        },
        {
            "name": "Annishinabwe Health Toronto",
            "address": "179 Gerrard, St E, Toronto",
            "phone": "416-920-2605",
            "website": "www.aht.ca",
            "cost": "Free",
            "lat": 43.660712, 
            "lng": -79.373194,
            "filter": "",
            "details": "" 
        },
        {
            "name": "Annishinabwe Health Toronto",
            "address": "4 Charles St E, Toronto",
            "phone": "416-657-0379",
            "website": "www.aht.ca",
            "cost": "Free",
            "lat": 43.668880, 
            "lng": -79.385875,
            "filter": "",
            "details": "" 
        },
        {
            "name": "Centre for Addiction and Mental Health",
            "address": "250 College St, Toronto",
            "phone": "(416) 535-8501",
            "website": "www.camh.ca",
            "cost": "Covered by OHIP",
            "lat": 43.658401, 
            "lng": -79.398969,
            "filter": "",
            "details": "" 
        },
        {
            "name": "Sheena's Place",
            "address": "87 Spadina Rd, Toronto",
            "phone": "(416) 927-8900",
            "website": "www.sheenasplace.org",
            "cost": "???",
            "lat": 43.670473, 
            "lng": -79.405166,
            "filter": "",
            "details": "" 
        }

    ]
}